company_name,ticker,sector,size_category,hq_lat,hq_lon,is_fraud,fraud_type,fraud_year,geo_shell_risk,geo_source,geo_verified,geo_images_analyzed,audio_jitter_zscore,audio_shimmer_zscore,audio_pitch_variance,audio_pause_rate,audio_source,audio_stress_profile,text_semantic_evasion,text_verdict,text_source,transcript_excerpt,transcript_source
Enron Corp,ENRNQ,Energy,enterprise,29.7545,-95.3727,1,Accounting Fraud,2001,0.6493,calibrated_synthetic,False,0,3.1139,1.6714,45.4256,0.1676,calibrated_synthetic,high,0.8843,N/A,calibrated_synthetic,,not_available
Wirecard AG,WDI.DE,Fintech,enterprise,48.1908,11.7937,1,Revenue Fabrication,2020,0.036,calibrated_synthetic,False,0,-0.1632,-0.4237,25.3282,0.071,calibrated_synthetic,low,0.6566,N/A,calibrated_synthetic,,not_available
Satyam Computer Services,SAY,IT,enterprise,17.44,78.4982,1,Accounting Fraud,2009,0.5635,calibrated_synthetic,False,0,1.0542,0.5593,40.9659,0.1193,calibrated_synthetic,moderate,0.4919,N/A,calibrated_synthetic,,not_available
Luckin Coffee,LK,Retail,enterprise,24.4798,118.0819,1,Revenue Fabrication,2020,0.0183,calibrated_synthetic,False,0,1.5692,0.8685,27.1905,0.1049,calibrated_synthetic,moderate,0.6354,N/A,calibrated_synthetic,,not_available
FTX Trading,FTT,Crypto,enterprise,25.048,-77.3554,1,Misappropriation,2022,0.01,calibrated_synthetic,False,0,0.046,-0.2031,21.0584,0.1212,calibrated_synthetic,low,0.6583,N/A,calibrated_synthetic,,not_available
Theranos,THNO,HealthTech,enterprise,37.4266,-122.143,1,Product Fraud,2018,0.7363,calibrated_synthetic,False,0,0.6468,0.3215,33.6877,0.1878,calibrated_synthetic,moderate,0.5666,N/A,calibrated_synthetic,,not_available
WorldCom,WCOM,Telecom,enterprise,32.3415,-90.176,1,Accounting Fraud,2002,0.5356,calibrated_synthetic,False,0,0.8259,-0.7859,22.1095,0.0835,calibrated_synthetic,low,0.5936,N/A,calibrated_synthetic,,not_available
HealthSouth Corp,HLSH,Healthcare,enterprise,33.4484,-86.7712,1,Accounting Fraud,2003,0.4902,calibrated_synthetic,False,0,1.8532,1.6488,49.154,0.223,calibrated_synthetic,high,0.5067,N/A,calibrated_synthetic,,not_available
Lehman Brothers,LEH,Finance,enterprise,40.7614,-73.9776,1,Risk Concealment,2008,0.444,calibrated_synthetic,False,0,1.3292,2.2073,42.6106,0.2004,calibrated_synthetic,high,0.5294,N/A,calibrated_synthetic,,not_available
WeWork,WE,Real Estate,enterprise,40.741,-73.9969,1,Valuation Fraud,2019,0.043,calibrated_synthetic,False,0,0.9545,0.0524,19.2878,0.077,calibrated_synthetic,low,0.6727,N/A,calibrated_synthetic,,not_available
Nikola Corp,NKLA,Automotive,SME,33.4484,-112.074,1,Product Fraud,2020,0.1247,calibrated_synthetic,False,0,0.6157,1.2571,33.2635,0.1596,calibrated_synthetic,moderate,0.5938,N/A,calibrated_synthetic,,not_available
Valeant Pharmaceuticals,VRX,Pharma,enterprise,45.5571,-73.7485,1,Price Manipulation,2015,0.3681,calibrated_synthetic,False,0,1.2498,0.5986,17.1454,0.1234,calibrated_synthetic,moderate,0.4981,N/A,calibrated_synthetic,,not_available
Tyco International,TYC,Security,enterprise,40.3573,-74.6672,1,Embezzlement,2002,0.3375,calibrated_synthetic,False,0,-0.2923,0.0682,24.5357,0.0157,calibrated_synthetic,low,0.7464,N/A,calibrated_synthetic,,not_available
Parmalat,PLT.MI,Food & Beverage,enterprise,44.747,10.2065,1,Accounting Fraud,2003,0.5869,calibrated_synthetic,False,0,2.7004,2.2425,33.1998,0.2163,calibrated_synthetic,high,0.6535,N/A,calibrated_synthetic,,not_available
Sino-Forest,TRE,Forestry,SME,43.589,-79.6441,1,Asset Fabrication,2011,0.2514,calibrated_synthetic,False,0,3.1297,2.811,31.7932,0.2674,calibrated_synthetic,high,0.4246,N/A,calibrated_synthetic,,not_available
Steinhoff International,SNH.JO,Retail,enterprise,-33.9616,18.8607,1,Accounting Fraud,2017,0.0624,calibrated_synthetic,False,0,2.4383,2.2388,42.7669,0.2579,calibrated_synthetic,high,0.4532,N/A,calibrated_synthetic,,not_available
FirstEnergy Corp,FE,Energy,enterprise,41.0853,-81.5075,1,Bribery,2020,0.5526,calibrated_synthetic,False,0,1.4412,0.7106,32.998,0.1437,calibrated_synthetic,moderate,0.4072,N/A,calibrated_synthetic,,not_available
Wells Fargo,WFC,Banking,enterprise,37.7893,-122.401,1,Fake Accounts,2016,0.0478,calibrated_synthetic,False,0,0.2693,0.1156,13.5807,0.0861,calibrated_synthetic,low,0.3758,N/A,calibrated_synthetic,,not_available
Volkswagen AG,VOW3.DE,Automotive,enterprise,52.4227,10.7862,1,Emissions Fraud,2015,0.5616,calibrated_synthetic,False,0,1.7497,2.3605,45.1379,0.2361,calibrated_synthetic,high,0.352,N/A,calibrated_synthetic,,not_available
Hin Leong Trading,HLTR,Oil Trading,enterprise,1.2966,103.7764,1,Loss Concealment,2020,0.99,calibrated_synthetic,False,0,0.8136,0.7053,24.6025,0.1241,calibrated_synthetic,moderate,0.7366,N/A,calibrated_synthetic,,not_available
NMC Health,NMC.L,Healthcare,enterprise,24.4539,54.3773,1,Accounting Fraud,2020,0.99,calibrated_synthetic,False,0,0.6611,0.5139,32.7572,0.0835,calibrated_synthetic,moderate,0.6116,N/A,calibrated_synthetic,,not_available
Carillion,CLLN.L,Construction,enterprise,52.5862,-2.1299,1,Accounting Fraud,2018,0.5933,calibrated_synthetic,False,0,-0.0647,0.2557,14.0374,0.0754,calibrated_synthetic,low,0.6336,N/A,calibrated_synthetic,,not_available
Patisserie Valerie,CAKE.L,Retail,SME,52.48,-1.9,1,Accounting Fraud,2019,0.2704,calibrated_synthetic,False,0,2.824,1.1174,49.1786,0.3486,calibrated_synthetic,high,0.9178,N/A,calibrated_synthetic,,not_available
Toshiba Corp,6502.T,Conglomerate,enterprise,35.6762,139.7649,1,Accounting Fraud,2015,0.081,calibrated_synthetic,False,0,-0.1708,-0.0179,8.0,0.039,calibrated_synthetic,low,0.7394,N/A,calibrated_synthetic,,not_available
Olympus Corp,7733.T,Electronics,enterprise,35.6895,139.6917,1,Loss Concealment,2011,0.4995,calibrated_synthetic,False,0,-0.3743,0.3489,18.0512,0.0407,calibrated_synthetic,low,0.8594,N/A,calibrated_synthetic,,not_available
Evergrande Group,3333.HK,Real Estate,enterprise,22.5431,114.0579,1,Debt Concealment,2021,0.0639,calibrated_synthetic,False,0,1.993,0.3049,42.9312,0.0224,calibrated_synthetic,moderate,0.7192,N/A,calibrated_synthetic,,not_available
Bausch Health,BHC,Pharma,enterprise,45.5571,-73.7485,1,Price Manipulation,2016,0.0454,calibrated_synthetic,False,0,1.6248,0.9428,23.1496,0.165,calibrated_synthetic,moderate,0.4939,N/A,calibrated_synthetic,,not_available
Beyond Meat (Hampton Creek),BYND,Food,startup,37.7749,-122.4194,1,Revenue Fabrication,2017,0.1684,calibrated_synthetic,False,0,0.1916,0.0352,24.3883,0.0563,calibrated_synthetic,low,0.7099,N/A,calibrated_synthetic,,not_available
Ozy Media,OZY,Media,startup,37.3861,-122.0839,1,Revenue Fabrication,2021,0.1828,calibrated_synthetic,False,0,0.2084,0.2046,16.4487,0.093,calibrated_synthetic,low,0.835,N/A,calibrated_synthetic,,not_available
Celsius Network,CEL,Crypto,SME,40.744,-74.0324,1,Misappropriation,2022,0.393,calibrated_synthetic,False,0,3.4265,2.5542,46.2412,0.244,calibrated_synthetic,high,0.3814,N/A,calibrated_synthetic,,not_available
MiMedx Group,MDXG,Biotech,SME,33.9526,-84.5499,1,Revenue Manipulation,2018,0.2239,calibrated_synthetic,False,0,0.0714,0.1239,15.1814,0.0471,calibrated_synthetic,low,0.4514,N/A,calibrated_synthetic,,not_available
Kraft Heinz,KHC,Food & Beverage,enterprise,41.8781,-87.6298,1,Procurement Fraud,2019,0.5987,calibrated_synthetic,False,0,0.8408,0.7146,30.1764,0.1938,calibrated_synthetic,moderate,0.3467,N/A,calibrated_synthetic,,not_available
General Electric,GE,Conglomerate,enterprise,42.3601,-71.0589,1,Insurance Concealment,2020,0.7215,calibrated_synthetic,False,0,-0.1309,0.1558,25.6637,0.0756,calibrated_synthetic,low,0.6581,N/A,calibrated_synthetic,,not_available
Under Armour,UAA,Retail,enterprise,39.2808,-76.6201,1,Revenue Pulling,2019,0.6303,calibrated_synthetic,False,0,0.2098,0.1494,25.2557,0.1184,calibrated_synthetic,low,0.4609,N/A,calibrated_synthetic,,not_available
Abraaj Group,ABRA,Private Equity,enterprise,25.2048,55.2708,1,Fund Misuse,2018,0.9806,calibrated_synthetic,False,0,2.0205,0.5133,34.7424,0.1469,calibrated_synthetic,high,0.4489,N/A,calibrated_synthetic,,not_available
Greensill Capital,GCAP,Finance,SME,51.5074,-0.1278,1,Credit Fraud,2021,0.4351,calibrated_synthetic,False,0,0.5399,1.5326,36.2561,0.0965,calibrated_synthetic,moderate,0.6885,N/A,calibrated_synthetic,,not_available
Lordstown Motors,RIDE,Automotive,SME,41.1664,-80.8573,1,Pre-order Fraud,2021,0.1555,calibrated_synthetic,False,0,0.2188,-0.135,21.1142,0.0373,calibrated_synthetic,low,0.6009,N/A,calibrated_synthetic,,not_available
Hyflux Ltd,HYF,Utilities,SME,1.2966,103.7764,1,Debt Concealment,2018,0.2122,calibrated_synthetic,False,0,2.7659,1.4761,55.5115,0.2081,calibrated_synthetic,high,0.83,N/A,calibrated_synthetic,,not_available
Noble Group,NOBG,Commodities,enterprise,22.3193,114.1694,1,Mark-to-Market,2018,0.7859,calibrated_synthetic,False,0,3.5949,1.3246,46.8605,0.2741,calibrated_synthetic,high,0.7162,N/A,calibrated_synthetic,,not_available
Lernout & Hauspie,LHSP,Tech,SME,50.8503,2.8833,1,Revenue Fabrication,2000,0.1487,calibrated_synthetic,False,0,3.8029,1.0339,22.9662,0.1961,calibrated_synthetic,high,0.6133,N/A,calibrated_synthetic,,not_available
Peregrine Financial,PFG,Finance,SME,42.5268,-92.4455,1,Misappropriation,2012,0.4701,calibrated_synthetic,False,0,-0.176,-0.1542,12.7039,0.0775,calibrated_synthetic,low,0.666,N/A,calibrated_synthetic,,not_available
MF Global,MF,Finance,enterprise,40.7128,-74.006,1,Risk Concealment,2011,0.741,calibrated_synthetic,False,0,2.0571,1.1615,59.6473,0.2025,calibrated_synthetic,high,0.4137,N/A,calibrated_synthetic,,not_available
Autonomy Corp,AUTN,Tech,enterprise,52.2053,0.1218,1,Revenue Fabrication,2012,0.029,calibrated_synthetic,False,0,-0.0303,-0.0825,8.0,0.0194,calibrated_synthetic,low,0.5045,N/A,calibrated_synthetic,,not_available
Waste Management,WM,Utilities,enterprise,29.7545,-95.3727,1,Accounting Fraud,1998,0.8234,calibrated_synthetic,False,0,2.3977,1.3311,23.9355,0.2142,calibrated_synthetic,high,0.8015,N/A,calibrated_synthetic,,not_available
Refco,REFCQ,Finance,enterprise,40.7128,-74.006,1,Debt Concealment,2005,0.3987,calibrated_synthetic,False,0,3.684,2.0542,31.3872,0.3066,calibrated_synthetic,high,0.5986,N/A,calibrated_synthetic,,not_available
Bernard L. Madoff,MADOFF,Finance,SME,40.758,-73.9855,1,Ponzi Scheme,2008,0.4933,calibrated_synthetic,False,0,-0.3594,0.1689,14.7468,0.0605,calibrated_synthetic,low,0.9437,N/A,calibrated_synthetic,,not_available
Stanford Financial,SIB,Finance,SME,29.7545,-95.3727,1,Ponzi Scheme,2009,0.3236,calibrated_synthetic,False,0,0.7462,0.5693,33.2877,0.145,calibrated_synthetic,moderate,0.557,N/A,calibrated_synthetic,,not_available
Afinsa,AFIN,Collectibles,SME,40.4168,-3.7038,1,Ponzi Scheme,2006,0.2659,calibrated_synthetic,False,0,-0.1053,-0.5415,9.8623,0.0819,calibrated_synthetic,low,0.7027,N/A,calibrated_synthetic,,not_available
Petrobras,PBR,Energy,enterprise,-22.9068,-43.1729,1,Bribery/Corruption,2014,0.6019,calibrated_synthetic,False,0,1.2237,0.4558,25.3081,0.1703,calibrated_synthetic,moderate,0.4827,N/A,calibrated_synthetic,,not_available
Golden Enterprises,GDEN,Food,SME,33.5207,-86.8025,1,Accounting Fraud,2012,0.326,calibrated_synthetic,False,0,2.9617,1.8579,43.7115,0.1577,calibrated_synthetic,high,0.4566,N/A,calibrated_synthetic,,not_available
Computer Associates,CRM.fraud,Tech,enterprise,40.8176,-73.2146,1,Accounting Fraud,2004,0.5673,calibrated_synthetic,False,0,0.9837,0.9578,25.0531,0.1345,calibrated_synthetic,moderate,0.5122,N/A,calibrated_synthetic,,not_available
AIG,AIG.fraud,Insurance,enterprise,40.7064,-74.0117,1,Accounting Fraud,2004,0.9651,calibrated_synthetic,False,0,1.0034,1.7539,40.1842,0.3174,calibrated_synthetic,high,0.4185,N/A,calibrated_synthetic,,not_available
Qwest Communications,QWEST,Telecom,enterprise,39.7392,-104.9903,1,Revenue Fabrication,2002,0.0598,calibrated_synthetic,False,0,3.415,2.2369,35.8471,0.2443,calibrated_synthetic,high,0.3339,N/A,calibrated_synthetic,,not_available
Adelphia Communications,ADES,Media,enterprise,42.0798,-80.0858,1,Embezzlement,2002,0.1181,calibrated_synthetic,False,0,0.2286,-0.1433,20.3949,0.0933,calibrated_synthetic,low,0.4459,N/A,calibrated_synthetic,,not_available
Sunbeam Corp,SIRI.fraud,Consumer,enterprise,26.1224,-80.1373,1,Revenue Fabrication,1998,0.0811,calibrated_synthetic,False,0,-0.1689,0.2609,24.7782,0.0965,calibrated_synthetic,low,0.7363,N/A,calibrated_synthetic,,not_available
Cendant Corp,CEND,Services,enterprise,40.9176,-74.1719,1,Accounting Fraud,1998,0.1063,calibrated_synthetic,False,0,0.312,-0.3376,30.0,0.0852,calibrated_synthetic,low,0.59,N/A,calibrated_synthetic,,not_available
DLIA*s,DLIA,Retail,startup,40.7128,-74.006,1,Accounting Fraud,1999,0.1566,calibrated_synthetic,False,0,0.7382,0.478,15.4439,0.0404,calibrated_synthetic,low,0.9388,N/A,calibrated_synthetic,,not_available
MicroStrategy,MSTR,Tech,SME,38.9072,-77.0369,1,Revenue Fabrication,2000,0.3936,calibrated_synthetic,False,0,-0.2048,-0.4965,22.1159,0.0829,calibrated_synthetic,low,0.5232,N/A,calibrated_synthetic,,not_available
Xerox Corp,XROX,Tech,enterprise,41.0407,-73.7629,1,Revenue Fabrication,2002,0.292,calibrated_synthetic,False,0,2.2818,0.3,39.4571,0.1838,calibrated_synthetic,high,0.5558,N/A,calibrated_synthetic,,not_available
Symbol Technologies,BOBJ,Tech,SME,40.7681,-73.5522,1,Revenue Fabrication,2003,0.5169,calibrated_synthetic,False,0,1.207,0.7903,29.3866,0.1128,calibrated_synthetic,moderate,0.6107,N/A,calibrated_synthetic,,not_available
Peregrine Systems,PRMS,Tech,SME,32.7157,-117.1611,1,Revenue Fabrication,2002,0.3265,calibrated_synthetic,False,0,0.8016,-0.7953,23.4575,0.1298,calibrated_synthetic,low,0.5541,N/A,calibrated_synthetic,,not_available
Global Crossing,GNSS,Telecom,enterprise,40.7128,-74.006,1,Capacity Swaps,2002,0.01,calibrated_synthetic,False,0,3.2485,2.8901,47.2167,0.121,calibrated_synthetic,high,0.9154,N/A,calibrated_synthetic,,not_available
ImClone Systems,IMCL,Pharma,SME,40.7128,-74.006,1,Insider Trading,2001,0.3338,calibrated_synthetic,False,0,2.8554,1.7473,51.5933,0.1243,calibrated_synthetic,high,0.728,N/A,calibrated_synthetic,,not_available
China MediaExpress,MAX,Media,SME,22.3193,114.1694,1,Revenue Fabrication,2011,0.5049,calibrated_synthetic,False,0,2.0818,2.7343,32.9566,0.1014,calibrated_synthetic,high,0.5667,N/A,calibrated_synthetic,,not_available
China Commercial Credit,CCME,Finance,SME,31.0456,121.3997,1,Revenue Fabrication,2015,0.0849,calibrated_synthetic,False,0,1.1516,0.582,30.794,0.1181,calibrated_synthetic,moderate,0.638,N/A,calibrated_synthetic,,not_available
Longtop Financial,DGT,Tech,SME,26.0745,119.2965,1,Revenue Fabrication,2011,0.578,calibrated_synthetic,False,0,1.4215,2.5203,41.7087,0.1871,calibrated_synthetic,high,0.2922,N/A,calibrated_synthetic,,not_available
RINO International,RINO,Industrial,SME,36.6167,109.4906,1,Revenue Fabrication,2010,0.4153,calibrated_synthetic,False,0,-0.481,0.3087,20.363,0.0902,calibrated_synthetic,low,0.6735,N/A,calibrated_synthetic,,not_available
China Agri-Business,CAGC,Agriculture,SME,31.2304,121.4737,1,Revenue Fabrication,2012,0.5599,calibrated_synthetic,False,0,2.9141,1.492,41.8677,0.1471,calibrated_synthetic,high,0.6047,N/A,calibrated_synthetic,,not_available
China Kanghui Food,BORN,Food,SME,34.2583,108.9286,1,Revenue Fabrication,2009,0.3208,calibrated_synthetic,False,0,2.5162,0.9973,29.2939,0.0771,calibrated_synthetic,moderate,0.4291,N/A,calibrated_synthetic,,not_available
Deer Consumer Electronics,DEER,Electronics,SME,22.5431,114.0579,1,Revenue Fabrication,2013,0.288,calibrated_synthetic,False,0,0.186,0.5312,14.8652,0.1525,calibrated_synthetic,low,0.4734,N/A,calibrated_synthetic,,not_available
Apple Inc,AAPL,Tech,enterprise,37.3349,-122.009,0,None,0,0.0712,calibrated_synthetic,False,0,0.101,-0.0223,21.1034,0.0871,calibrated_synthetic,low,0.1409,N/A,calibrated_synthetic,,not_available
Microsoft Corp,MSFT,Tech,enterprise,47.6396,-122.1283,0,None,0,0.01,calibrated_synthetic,False,0,0.1719,-0.4983,20.1481,0.0883,calibrated_synthetic,low,0.3189,N/A,calibrated_synthetic,,not_available
Alphabet Inc,GOOGL,Tech,enterprise,37.422,-122.0841,0,None,0,0.0581,calibrated_synthetic,False,0,0.2119,0.2815,15.4198,0.0838,calibrated_synthetic,low,0.2542,N/A,calibrated_synthetic,,not_available
Amazon.com,AMZN,Tech,enterprise,47.6062,-122.3321,0,None,0,0.0361,calibrated_synthetic,False,0,0.1253,-0.1319,25.2349,0.0879,calibrated_synthetic,low,0.1158,N/A,calibrated_synthetic,,not_available
NVIDIA Corp,NVDA,Tech,enterprise,37.3702,-122.0371,0,None,0,0.081,calibrated_synthetic,False,0,1.9047,1.7196,25.4601,0.0977,calibrated_synthetic,moderate,0.1724,N/A,calibrated_synthetic,,not_available
Meta Platforms,META,Tech,enterprise,37.4849,-122.1485,0,None,0,0.0936,calibrated_synthetic,False,0,-0.2017,-0.2303,17.8266,0.0894,calibrated_synthetic,low,0.1122,N/A,calibrated_synthetic,,not_available
Tesla Inc,TSLA,Automotive,enterprise,30.2215,-97.7596,0,None,0,0.0965,calibrated_synthetic,False,0,0.353,0.0499,20.4623,0.0916,calibrated_synthetic,low,0.0816,N/A,calibrated_synthetic,,not_available
Berkshire Hathaway,BRK.A,Finance,enterprise,41.2565,-95.9345,0,None,0,0.1237,calibrated_synthetic,False,0,0.7682,-0.1712,13.8382,0.0989,calibrated_synthetic,low,0.4284,N/A,calibrated_synthetic,,not_available
Visa Inc,V,Finance,enterprise,37.5293,-122.2655,0,None,0,0.0334,calibrated_synthetic,False,0,0.0449,0.0858,19.6723,0.1063,calibrated_synthetic,low,0.1581,N/A,calibrated_synthetic,,not_available
JPMorgan Chase,JPM,Finance,enterprise,40.7559,-73.9774,0,None,0,0.1103,calibrated_synthetic,False,0,-0.007,0.0671,17.9179,0.1275,calibrated_synthetic,low,0.5192,N/A,calibrated_synthetic,,not_available
Johnson & Johnson,JNJ,Healthcare,enterprise,40.4862,-74.4518,0,None,0,0.1258,calibrated_synthetic,False,0,1.0204,1.0363,35.7609,0.161,calibrated_synthetic,moderate,0.3376,N/A,calibrated_synthetic,,not_available
Walmart Inc,WMT,Retail,enterprise,36.3729,-94.2088,0,None,0,0.0652,calibrated_synthetic,False,0,0.6826,-0.2451,19.8434,0.0643,calibrated_synthetic,low,0.272,N/A,calibrated_synthetic,,not_available
UnitedHealth Group,UNH,Healthcare,enterprise,44.8833,-93.368,0,None,0,0.0509,calibrated_synthetic,False,0,2.2816,0.6769,29.5341,0.1325,calibrated_synthetic,moderate,0.3468,N/A,calibrated_synthetic,,not_available
Mastercard Inc,MA,Finance,enterprise,41.077,-73.814,0,None,0,0.0973,calibrated_synthetic,False,0,1.7368,0.3894,28.9308,0.085,calibrated_synthetic,moderate,0.2791,N/A,calibrated_synthetic,,not_available
Procter & Gamble,PG,Consumer,enterprise,39.1,-84.5167,0,None,0,0.0859,calibrated_synthetic,False,0,0.9525,-0.4344,8.0,0.0976,calibrated_synthetic,low,0.1667,N/A,calibrated_synthetic,,not_available
ExxonMobil,XOM,Energy,enterprise,32.4487,-96.9972,0,None,0,0.0349,calibrated_synthetic,False,0,0.4601,-0.0298,27.2332,0.0372,calibrated_synthetic,low,0.3809,N/A,calibrated_synthetic,,not_available
Home Depot,HD,Retail,enterprise,33.9062,-84.3621,0,None,0,0.01,calibrated_synthetic,False,0,0.7775,-0.0246,23.5865,0.0937,calibrated_synthetic,low,0.0623,N/A,calibrated_synthetic,,not_available
Chevron Corp,CVX,Energy,enterprise,37.761,-121.9565,0,None,0,0.0637,calibrated_synthetic,False,0,0.1641,0.432,14.618,0.152,calibrated_synthetic,low,0.3564,N/A,calibrated_synthetic,,not_available
Eli Lilly,LLY,Pharma,enterprise,39.7684,-86.1581,0,None,0,0.0488,calibrated_synthetic,False,0,-0.5558,-0.1357,8.0,0.0166,calibrated_synthetic,low,0.1831,N/A,calibrated_synthetic,,not_available
AbbVie Inc,ABBV,Pharma,enterprise,42.2818,-87.9527,0,None,0,0.0728,calibrated_synthetic,False,0,1.9517,1.1509,26.4533,0.1213,calibrated_synthetic,moderate,0.0762,N/A,calibrated_synthetic,,not_available
Coca-Cola Co,KO,Consumer,enterprise,33.7676,-84.388,0,None,0,0.0563,calibrated_synthetic,False,0,0.4563,-0.1714,20.8629,0.136,calibrated_synthetic,low,0.5197,N/A,calibrated_synthetic,,not_available
PepsiCo Inc,PEP,Consumer,enterprise,41.089,-73.7153,0,None,0,0.0777,calibrated_synthetic,False,0,0.6198,-0.1606,24.587,0.0879,calibrated_synthetic,low,0.3453,N/A,calibrated_synthetic,,not_available
Pfizer Inc,PFE,Pharma,enterprise,40.7499,-73.9768,0,None,0,0.1123,calibrated_synthetic,False,0,0.3697,0.1569,15.1315,0.079,calibrated_synthetic,low,0.2019,N/A,calibrated_synthetic,,not_available
Merck & Co,MRK,Pharma,enterprise,40.6589,-74.6225,0,None,0,0.1143,calibrated_synthetic,False,0,1.0713,0.1326,30.7946,0.1524,calibrated_synthetic,moderate,0.0966,N/A,calibrated_synthetic,,not_available
Cisco Systems,CSCO,Tech,enterprise,37.4084,-121.9536,0,None,0,0.0355,calibrated_synthetic,False,0,0.0164,0.3236,17.8075,0.0731,calibrated_synthetic,low,0.5026,N/A,calibrated_synthetic,,not_available
Broadcom Inc,AVGO,Tech,enterprise,37.3745,-122.0187,0,None,0,0.0765,calibrated_synthetic,False,0,0.3976,0.0782,15.2485,0.0531,calibrated_synthetic,low,0.3094,N/A,calibrated_synthetic,,not_available
Abbott Laboratories,ABT,Healthcare,enterprise,42.2694,-87.8419,0,None,0,0.0492,calibrated_synthetic,False,0,0.3301,0.655,20.1623,0.0553,calibrated_synthetic,moderate,0.4223,N/A,calibrated_synthetic,,not_available
Salesforce Inc,CRM,Tech,enterprise,37.7899,-122.3969,0,None,0,0.0848,calibrated_synthetic,False,0,0.5985,-0.1481,10.2171,0.0629,calibrated_synthetic,low,0.0576,N/A,calibrated_synthetic,,not_available
McDonald's Corp,MCD,Consumer,enterprise,41.8827,-87.6233,0,None,0,0.095,calibrated_synthetic,False,0,0.372,0.3091,19.1939,0.0696,calibrated_synthetic,low,0.3073,N/A,calibrated_synthetic,,not_available
Accenture plc,ACN,Consulting,enterprise,53.3498,-6.2603,0,None,0,0.0441,calibrated_synthetic,False,0,2.5629,0.6013,49.1633,0.2243,calibrated_synthetic,high,0.2379,N/A,calibrated_synthetic,,not_available
Adobe Inc,ADBE,Tech,enterprise,37.331,-121.8932,0,None,0,0.0799,calibrated_synthetic,False,0,0.6733,0.5505,41.3982,0.1105,calibrated_synthetic,moderate,0.3419,N/A,calibrated_synthetic,,not_available
Walt Disney Co,DIS,Media,enterprise,34.1561,-118.3246,0,None,0,0.0565,calibrated_synthetic,False,0,0.2804,0.3152,23.5276,0.1275,calibrated_synthetic,low,0.2414,N/A,calibrated_synthetic,,not_available
Novartis AG,NVS,Pharma,enterprise,47.556,7.5925,0,None,0,0.0692,calibrated_synthetic,False,0,1.3644,0.9285,30.9534,0.2007,calibrated_synthetic,moderate,0.2404,N/A,calibrated_synthetic,,not_available
AstraZeneca,AZN,Pharma,enterprise,52.0406,-1.1543,0,None,0,0.0636,calibrated_synthetic,False,0,0.081,0.4127,17.2497,0.085,calibrated_synthetic,low,0.3552,N/A,calibrated_synthetic,,not_available
Toyota Motor,TM,Automotive,enterprise,35.0908,137.1543,0,None,0,0.0448,calibrated_synthetic,False,0,-0.6614,-0.1917,11.3846,0.1457,calibrated_synthetic,low,0.1013,N/A,calibrated_synthetic,,not_available
Samsung Electronics,005930.KS,Tech,enterprise,37.2431,127.0804,0,None,0,0.0803,calibrated_synthetic,False,0,0.5052,0.1418,35.158,0.242,calibrated_synthetic,moderate,0.5936,N/A,calibrated_synthetic,,not_available
LVMH,MC.PA,Luxury,enterprise,48.8704,2.3076,0,None,0,0.0915,calibrated_synthetic,False,0,1.1687,0.4984,26.0353,0.0354,calibrated_synthetic,moderate,0.2656,N/A,calibrated_synthetic,,not_available
ASML Holdings,ASML,Tech,enterprise,51.5845,5.6502,0,None,0,0.047,calibrated_synthetic,False,0,-0.1959,0.2822,13.0876,0.071,calibrated_synthetic,low,0.0144,N/A,calibrated_synthetic,,not_available
Nestle SA,NESN.SW,Consumer,enterprise,46.4642,6.842,0,None,0,0.0665,calibrated_synthetic,False,0,2.8524,1.9863,45.5249,0.2157,calibrated_synthetic,high,0.0111,N/A,calibrated_synthetic,,not_available
Novo Nordisk,NVO,Pharma,enterprise,55.7537,12.4177,0,None,0,0.0909,calibrated_synthetic,False,0,0.849,0.5348,18.1818,0.2075,calibrated_synthetic,moderate,0.2561,N/A,calibrated_synthetic,,not_available
Tencent Holdings,0700.HK,Tech,enterprise,22.5331,113.9387,0,None,0,0.0127,calibrated_synthetic,False,0,0.3116,-0.2506,28.7257,0.0325,calibrated_synthetic,low,0.149,N/A,calibrated_synthetic,,not_available
Alibaba Group,BABA,Tech,enterprise,30.2741,120.1551,0,None,0,0.0593,calibrated_synthetic,False,0,1.6819,1.6842,24.0976,0.0515,calibrated_synthetic,moderate,0.2279,N/A,calibrated_synthetic,,not_available
Oracle Corp,ORCL,Tech,enterprise,30.2672,-97.7431,0,None,0,0.0474,calibrated_synthetic,False,0,0.8514,-0.1137,16.9821,0.0567,calibrated_synthetic,low,0.3353,N/A,calibrated_synthetic,,not_available
SAP SE,SAP,Tech,enterprise,49.2932,8.6435,0,None,0,0.0196,calibrated_synthetic,False,0,2.7647,2.5835,20.0626,0.2262,calibrated_synthetic,high,0.0166,N/A,calibrated_synthetic,,not_available
BHP Group,BHP,Mining,enterprise,-37.8176,144.9636,0,None,0,0.0868,calibrated_synthetic,False,0,0.2304,0.1616,13.3966,0.0868,calibrated_synthetic,low,0.3337,N/A,calibrated_synthetic,,not_available
Shell plc,SHEL,Energy,enterprise,51.498,0.0118,0,None,0,0.01,calibrated_synthetic,False,0,-0.2369,-0.0949,24.0655,0.0857,calibrated_synthetic,low,0.3414,N/A,calibrated_synthetic,,not_available
Siemens AG,SIE.DE,Industrial,enterprise,48.1313,11.5862,0,None,0,0.1196,calibrated_synthetic,False,0,0.5827,-0.2358,11.3438,0.01,calibrated_synthetic,low,0.3562,N/A,calibrated_synthetic,,not_available
Unilever plc,UL,Consumer,enterprise,51.5003,-0.1149,0,None,0,0.0652,calibrated_synthetic,False,0,1.2409,0.7604,34.4335,0.1055,calibrated_synthetic,moderate,0.3758,N/A,calibrated_synthetic,,not_available
Intuit Inc,INTU,Tech,enterprise,37.3861,-122.0839,0,None,0,0.058,calibrated_synthetic,False,0,-0.1594,0.0085,17.9544,0.1234,calibrated_synthetic,low,0.3305,N/A,calibrated_synthetic,,not_available
Sony Group,SONY,Electronics,enterprise,35.6287,139.7403,0,None,0,0.0642,calibrated_synthetic,False,0,-0.226,-0.0916,14.9524,0.0725,calibrated_synthetic,low,0.0532,N/A,calibrated_synthetic,,not_available
Netflix Inc,NFLX,Media,enterprise,34.0278,-118.6679,0,None,0,0.0517,calibrated_synthetic,False,0,1.128,0.3161,32.1995,0.1965,calibrated_synthetic,moderate,0.1091,N/A,calibrated_synthetic,,not_available
Intel Corp,INTC,Tech,enterprise,37.3875,-121.9636,0,None,0,0.0866,calibrated_synthetic,False,0,1.0059,0.8682,29.124,0.1202,calibrated_synthetic,moderate,0.2046,N/A,calibrated_synthetic,,not_available
IBM Corp,IBM,Tech,enterprise,41.1077,-73.7209,0,None,0,0.0631,calibrated_synthetic,False,0,0.1101,-0.351,8.9901,0.1017,calibrated_synthetic,low,0.045,N/A,calibrated_synthetic,,not_available
Honeywell Intl,HON,Industrial,enterprise,40.5039,-74.248,0,None,0,0.0728,calibrated_synthetic,False,0,0.1939,0.1738,18.5979,0.0411,calibrated_synthetic,low,0.2775,N/A,calibrated_synthetic,,not_available
Caterpillar Inc,CAT,Industrial,enterprise,40.6936,-89.589,0,None,0,0.0859,calibrated_synthetic,False,0,0.8847,-0.4116,9.9322,0.1388,calibrated_synthetic,low,0.2241,N/A,calibrated_synthetic,,not_available
Boeing Co,BA,Aerospace,enterprise,38.8851,-77.0208,0,None,0,0.0437,calibrated_synthetic,False,0,1.0629,-0.1817,21.7105,0.092,calibrated_synthetic,low,0.1768,N/A,calibrated_synthetic,,not_available
Lockheed Martin,LMT,Aerospace,enterprise,38.7951,-77.0616,0,None,0,0.0891,calibrated_synthetic,False,0,0.2546,-0.1096,18.9234,0.0261,calibrated_synthetic,low,0.552,N/A,calibrated_synthetic,,not_available
Nike Inc,NKE,Consumer,enterprise,45.5088,-122.8055,0,None,0,0.0209,calibrated_synthetic,False,0,0.5984,-0.227,10.8909,0.1401,calibrated_synthetic,low,0.3578,N/A,calibrated_synthetic,,not_available
Starbucks Corp,SBUX,Consumer,enterprise,47.58,-122.3354,0,None,0,0.0403,calibrated_synthetic,False,0,0.5711,0.0171,19.343,0.1411,calibrated_synthetic,low,0.1535,N/A,calibrated_synthetic,,not_available
Target Corp,TGT,Retail,enterprise,44.9282,-93.2779,0,None,0,0.0652,calibrated_synthetic,False,0,1.0225,-0.331,16.8937,0.0689,calibrated_synthetic,low,0.01,N/A,calibrated_synthetic,,not_available
Costco Wholesale,COST,Retail,enterprise,47.5948,-122.158,0,None,0,0.0592,calibrated_synthetic,False,0,2.0037,0.9964,33.1441,0.1531,calibrated_synthetic,moderate,0.2127,N/A,calibrated_synthetic,,not_available
CVS Health Corp,CVS,Healthcare,enterprise,41.6878,-71.2659,0,None,0,0.0852,calibrated_synthetic,False,0,1.8191,0.8085,30.1618,0.2051,calibrated_synthetic,moderate,0.338,N/A,calibrated_synthetic,,not_available
Medtronic plc,MDT,Healthcare,enterprise,44.9712,-93.277,0,None,0,0.0572,calibrated_synthetic,False,0,0.4693,-0.0415,11.8785,0.0716,calibrated_synthetic,low,0.4435,N/A,calibrated_synthetic,,not_available
Stryker Corp,SYK,Healthcare,enterprise,42.2917,-85.5872,0,None,0,0.0245,calibrated_synthetic,False,0,0.6787,-0.1829,17.3299,0.0806,calibrated_synthetic,low,0.3167,N/A,calibrated_synthetic,,not_available
Gilead Sciences,GILD,Pharma,enterprise,37.5108,-122.1958,0,None,0,0.0265,calibrated_synthetic,False,0,0.0509,0.5181,16.0018,0.089,calibrated_synthetic,low,0.3584,N/A,calibrated_synthetic,,not_available
Amgen Inc,AMGN,Pharma,enterprise,34.1792,-118.9497,0,None,0,0.078,calibrated_synthetic,False,0,0.9179,0.8738,38.7948,0.2203,calibrated_synthetic,moderate,0.6337,N/A,calibrated_synthetic,,not_available
Moderna Inc,MRNA,Pharma,enterprise,42.358,-71.0642,0,None,0,0.1118,calibrated_synthetic,False,0,1.1983,0.7319,24.8274,0.1548,calibrated_synthetic,moderate,0.1273,N/A,calibrated_synthetic,,not_available
Airbnb Inc,ABNB,Tech,enterprise,37.7707,-122.4068,0,None,0,0.0787,calibrated_synthetic,False,0,0.1669,-0.0365,25.5672,0.1052,calibrated_synthetic,low,0.01,N/A,calibrated_synthetic,,not_available
Uber Technologies,UBER,Tech,enterprise,37.7749,-122.4194,0,None,0,0.0193,calibrated_synthetic,False,0,1.7444,1.5538,38.8027,0.0956,calibrated_synthetic,moderate,0.1942,N/A,calibrated_synthetic,,not_available
Spotify Technology,SPOT,Tech,enterprise,59.3293,18.0686,0,None,0,0.0164,calibrated_synthetic,False,0,0.4054,-0.1598,12.1504,0.01,calibrated_synthetic,low,0.0108,N/A,calibrated_synthetic,,not_available
Shopify Inc,SHOP,Tech,enterprise,45.4215,-75.6972,0,None,0,0.0492,calibrated_synthetic,False,0,0.3207,0.2298,24.1347,0.076,calibrated_synthetic,low,0.1002,N/A,calibrated_synthetic,,not_available
PayPal Holdings,PYPL,Finance,enterprise,37.2526,-121.9268,0,None,0,0.0439,calibrated_synthetic,False,0,1.9463,0.6916,27.8504,0.0826,calibrated_synthetic,moderate,0.1295,N/A,calibrated_synthetic,,not_available
BlackRock Inc,BLK,Finance,enterprise,40.7614,-73.9776,0,None,0,0.01,calibrated_synthetic,False,0,0.9355,1.1177,19.22,0.1347,calibrated_synthetic,moderate,0.0156,N/A,calibrated_synthetic,,not_available
Goldman Sachs,GS,Finance,enterprise,40.7146,-74.0071,0,None,0,0.01,calibrated_synthetic,False,0,1.3003,1.2595,20.8892,0.1231,calibrated_synthetic,moderate,0.1285,N/A,calibrated_synthetic,,not_available
Morgan Stanley,MS,Finance,enterprise,40.7616,-73.9769,0,None,0,0.0629,calibrated_synthetic,False,0,-0.9685,0.131,22.5197,0.01,calibrated_synthetic,low,0.0892,N/A,calibrated_synthetic,,not_available
Citigroup Inc,C,Finance,enterprise,40.7203,-74.0098,0,None,0,0.0197,calibrated_synthetic,False,0,-0.0584,-0.2398,15.5863,0.0419,calibrated_synthetic,low,0.4562,N/A,calibrated_synthetic,,not_available
Bank of America,BAC,Finance,enterprise,35.2271,-80.8431,0,None,0,0.0537,calibrated_synthetic,False,0,0.1689,-0.0541,30.0,0.092,calibrated_synthetic,low,0.3825,N/A,calibrated_synthetic,,not_available
American Express,AXP,Finance,enterprise,40.7544,-74.0009,0,None,0,0.0274,calibrated_synthetic,False,0,0.9493,0.324,15.7634,0.1312,calibrated_synthetic,low,0.1498,N/A,calibrated_synthetic,,not_available
Ford Motor Co,F,Automotive,enterprise,42.3133,-83.1763,0,None,0,0.052,calibrated_synthetic,False,0,0.0385,-0.2865,20.118,0.1625,calibrated_synthetic,low,0.1998,N/A,calibrated_synthetic,,not_available
General Motors,GM,Automotive,enterprise,42.3314,-83.0458,0,None,0,0.018,calibrated_synthetic,False,0,0.1251,0.2957,23.9369,0.18,calibrated_synthetic,low,0.3142,N/A,calibrated_synthetic,,not_available
Honda Motor Co,HMC,Automotive,enterprise,35.7796,139.7381,0,None,0,0.0674,calibrated_synthetic,False,0,0.727,-0.302,23.6994,0.1327,calibrated_synthetic,low,0.2753,N/A,calibrated_synthetic,,not_available
BMW AG,BMW.DE,Automotive,enterprise,48.1771,11.5564,0,None,0,0.0465,calibrated_synthetic,False,0,0.5362,0.164,16.8053,0.0653,calibrated_synthetic,low,0.1743,N/A,calibrated_synthetic,,not_available
Mercedes-Benz,MBG.DE,Automotive,enterprise,48.7863,9.2267,0,None,0,0.0382,calibrated_synthetic,False,0,2.1547,2.2826,39.758,0.1367,calibrated_synthetic,high,0.3997,N/A,calibrated_synthetic,,not_available
Ferrari NV,RACE,Automotive,enterprise,44.5334,10.8593,0,None,0,0.0597,calibrated_synthetic,False,0,0.4347,-0.1425,22.3565,0.0262,calibrated_synthetic,low,0.2112,N/A,calibrated_synthetic,,not_available
Dell Technologies,DELL,Tech,enterprise,30.3933,-97.7248,0,None,0,0.0538,calibrated_synthetic,False,0,0.3957,0.1904,23.5485,0.0964,calibrated_synthetic,low,0.3026,N/A,calibrated_synthetic,,not_available
HP Inc,HPQ,Tech,enterprise,37.4135,-122.1475,0,None,0,0.0428,calibrated_synthetic,False,0,-0.6691,0.2542,15.3234,0.0764,calibrated_synthetic,low,0.2319,N/A,calibrated_synthetic,,not_available
Lenovo Group,992.HK,Tech,enterprise,22.3193,114.1694,0,None,0,0.06,calibrated_synthetic,False,0,0.4461,-0.2806,23.4299,0.0586,calibrated_synthetic,low,0.3608,N/A,calibrated_synthetic,,not_available
LG Electronics,066570.KS,Electronics,enterprise,37.504,126.953,0,None,0,0.0742,calibrated_synthetic,False,0,1.6,0.1535,20.6242,0.0666,calibrated_synthetic,moderate,0.2045,N/A,calibrated_synthetic,,not_available
Panasonic Holdings,6752.T,Electronics,enterprise,34.6937,135.5023,0,None,0,0.0785,calibrated_synthetic,False,0,0.2953,0.2926,20.5055,0.0876,calibrated_synthetic,low,0.1109,N/A,calibrated_synthetic,,not_available
Canon Inc,CAJ,Electronics,enterprise,35.7594,139.7173,0,None,0,0.08,calibrated_synthetic,False,0,0.145,0.2859,26.0614,0.1326,calibrated_synthetic,low,0.456,N/A,calibrated_synthetic,,not_available
Garmin Ltd,GRMN,Electronics,SME,38.8827,-94.8167,0,None,0,0.3726,calibrated_synthetic,False,0,0.1296,0.037,20.7574,0.0817,calibrated_synthetic,low,0.5756,N/A,calibrated_synthetic,,not_available
Roku Inc,ROKU,Tech,SME,37.2502,-121.9502,0,None,0,0.3776,calibrated_synthetic,False,0,0.0283,-0.2077,10.9684,0.0767,calibrated_synthetic,low,0.2444,N/A,calibrated_synthetic,,not_available
Sonos Inc,SONO,Electronics,SME,34.4208,-119.6982,0,None,0,0.0896,calibrated_synthetic,False,0,1.8702,0.0499,28.8052,0.112,calibrated_synthetic,moderate,0.2979,N/A,calibrated_synthetic,,not_available
Zillow Group,ZG,Real Estate,SME,47.608,-122.3352,0,None,0,0.2854,calibrated_synthetic,False,0,0.9605,-0.0182,14.458,0.0195,calibrated_synthetic,low,0.2532,N/A,calibrated_synthetic,,not_available
JetBlue Airways,JBLU,Aviation,SME,40.6413,-73.7781,0,None,0,0.0627,calibrated_synthetic,False,0,0.2587,0.4837,22.4842,0.0693,calibrated_synthetic,low,0.1775,N/A,calibrated_synthetic,,not_available
Abercrombie & Fitch,ANF,Retail,SME,40.0934,-82.8223,0,None,0,0.1448,calibrated_synthetic,False,0,1.0876,0.54,29.1806,0.1421,calibrated_synthetic,moderate,0.2615,N/A,calibrated_synthetic,,not_available
Proto Labs,PRLB,Manufacturing,SME,45.0069,-93.6558,0,None,0,0.1269,calibrated_synthetic,False,0,0.3148,-0.1837,19.8075,0.0343,calibrated_synthetic,low,0.393,N/A,calibrated_synthetic,,not_available
Editas Medicine,EDIT,Biotech,SME,42.3686,-71.0827,0,None,0,0.2348,calibrated_synthetic,False,0,1.2799,0.3889,36.86,0.0767,calibrated_synthetic,moderate,0.2639,N/A,calibrated_synthetic,,not_available
Carvana Co,CVNA,Automotive,SME,33.5091,-112.0495,0,None,0,0.3123,calibrated_synthetic,False,0,-0.0682,0.4177,16.7498,0.0915,calibrated_synthetic,low,0.4001,N/A,calibrated_synthetic,,not_available
Snap Inc,SNAP,Tech,SME,34.0259,-118.4965,0,None,0,0.2484,calibrated_synthetic,False,0,0.613,0.338,12.5452,0.0636,calibrated_synthetic,low,0.01,N/A,calibrated_synthetic,,not_available
Pinterest Inc,PINS,Tech,SME,37.7749,-122.4194,0,None,0,0.1255,calibrated_synthetic,False,0,0.1163,-0.505,13.9706,0.1186,calibrated_synthetic,low,0.1657,N/A,calibrated_synthetic,,not_available
Dropbox Inc,DBX,Tech,SME,37.7896,-122.3936,0,None,0,0.3704,calibrated_synthetic,False,0,0.9631,0.7942,31.824,0.1203,calibrated_synthetic,moderate,0.3136,N/A,calibrated_synthetic,,not_available
ZoomInfo Tech,ZI,Tech,SME,47.6062,-122.3321,0,None,0,0.1857,calibrated_synthetic,False,0,2.2636,2.4879,36.6618,0.2821,calibrated_synthetic,high,0.3341,N/A,calibrated_synthetic,,not_available
HubSpot Inc,HUBS,Tech,SME,42.3601,-71.0589,0,None,0,0.2583,calibrated_synthetic,False,0,0.893,0.6694,21.1903,0.1,calibrated_synthetic,low,0.2714,N/A,calibrated_synthetic,,not_available
Datadog Inc,DDOG,Tech,SME,40.7128,-74.006,0,None,0,0.0629,calibrated_synthetic,False,0,3.0983,1.2491,42.3925,0.3452,calibrated_synthetic,high,0.01,N/A,calibrated_synthetic,,not_available
CrowdStrike,CRWD,Cybersecurity,SME,30.2672,-97.7431,0,None,0,0.1423,calibrated_synthetic,False,0,0.0139,-0.0318,30.0,0.0199,calibrated_synthetic,low,0.3245,N/A,calibrated_synthetic,,not_available
Okta Inc,OKTA,Cybersecurity,SME,37.7749,-122.4194,0,None,0,0.2478,calibrated_synthetic,False,0,0.0627,0.1865,16.1519,0.0951,calibrated_synthetic,low,0.2904,N/A,calibrated_synthetic,,not_available
Twilio Inc,TWLO,Tech,SME,37.7749,-122.4194,0,None,0,0.2224,calibrated_synthetic,False,0,0.9022,1.3498,13.0503,0.25,calibrated_synthetic,moderate,0.1519,N/A,calibrated_synthetic,,not_available
MongoDB Inc,MDB,Tech,SME,40.7128,-74.006,0,None,0,0.32,calibrated_synthetic,False,0,2.5717,1.8619,38.4873,0.1864,calibrated_synthetic,high,0.3333,N/A,calibrated_synthetic,,not_available
Cloudflare Inc,NET,Tech,SME,37.7749,-122.4194,0,None,0,0.327,calibrated_synthetic,False,0,0.6496,0.2843,14.1356,0.0963,calibrated_synthetic,low,0.1917,N/A,calibrated_synthetic,,not_available
Unity Technologies,U,Tech,SME,37.7749,-122.4194,0,None,0,0.1376,calibrated_synthetic,False,0,0.4065,-0.1924,20.1596,0.112,calibrated_synthetic,low,0.3588,N/A,calibrated_synthetic,,not_available
DraftKings Inc,DKNG,Gaming,SME,42.3601,-71.0589,0,None,0,0.2929,calibrated_synthetic,False,0,0.1348,-0.2235,14.6241,0.0742,calibrated_synthetic,low,0.1177,N/A,calibrated_synthetic,,not_available
Roblox Corp,RBLX,Gaming,SME,37.5485,-122.05,0,None,0,0.1537,calibrated_synthetic,False,0,3.2501,0.8747,32.3728,0.1462,calibrated_synthetic,high,0.3489,N/A,calibrated_synthetic,,not_available
Peloton Interactive,PTON,Consumer,SME,40.7128,-74.006,0,None,0,0.1404,calibrated_synthetic,False,0,0.224,0.0832,24.8033,0.0276,calibrated_synthetic,low,0.0641,N/A,calibrated_synthetic,,not_available
Chewy Inc,CHWY,Retail,SME,33.7879,-84.3816,0,None,0,0.0075,calibrated_synthetic,False,0,-0.1894,0.1429,20.5274,0.1224,calibrated_synthetic,low,0.3711,N/A,calibrated_synthetic,,not_available
Etsy Inc,ETSY,Retail,SME,40.7408,-73.9917,0,None,0,0.4734,calibrated_synthetic,False,0,-0.0096,0.0457,13.8879,0.1248,calibrated_synthetic,low,0.1886,N/A,calibrated_synthetic,,not_available
Wayfair Inc,W,Retail,SME,42.3601,-71.0589,0,None,0,0.225,calibrated_synthetic,False,0,0.0785,-0.4038,13.9037,0.061,calibrated_synthetic,low,0.1513,N/A,calibrated_synthetic,,not_available
Lemonade Inc,LMND,Insurance,SME,40.7128,-74.006,0,None,0,0.3037,calibrated_synthetic,False,0,0.3061,-0.1748,8.0,0.0746,calibrated_synthetic,low,0.2345,N/A,calibrated_synthetic,,not_available
SoFi Technologies,SOFI,Finance,SME,37.7749,-122.4194,0,None,0,0.353,calibrated_synthetic,False,0,0.0736,0.1847,24.0194,0.0744,calibrated_synthetic,low,0.1574,N/A,calibrated_synthetic,,not_available
Robinhood Markets,HOOD,Finance,SME,37.4849,-122.1485,0,None,0,0.1845,calibrated_synthetic,False,0,-0.0033,-0.0443,15.7338,0.1381,calibrated_synthetic,low,0.0669,N/A,calibrated_synthetic,,not_available
Rivian Automotive,RIVN,Automotive,SME,33.8559,-117.5654,0,None,0,0.2544,calibrated_synthetic,False,0,-0.2287,-0.4661,22.0894,0.0951,calibrated_synthetic,low,0.3506,N/A,calibrated_synthetic,,not_available
Lucid Group,LCID,Automotive,SME,37.3688,-121.9169,0,None,0,0.1438,calibrated_synthetic,False,0,1.0357,1.0413,24.1912,0.1119,calibrated_synthetic,moderate,0.3458,N/A,calibrated_synthetic,,not_available
Palantir Technologies,PLTR,Tech,enterprise,37.7749,-122.4194,0,None,0,0.0512,calibrated_synthetic,False,0,0.1236,0.7238,21.923,0.0792,calibrated_synthetic,low,0.01,N/A,calibrated_synthetic,,not_available
UiPath Inc,PATH,Tech,SME,40.7128,-74.006,0,None,0,0.2013,calibrated_synthetic,False,0,0.3754,0.0059,21.3643,0.1037,calibrated_synthetic,low,0.3577,N/A,calibrated_synthetic,,not_available
Snowflake Inc,SNOW,Tech,enterprise,37.6624,-122.3984,0,None,0,0.0394,calibrated_synthetic,False,0,1.2254,0.8693,29.7077,0.1088,calibrated_synthetic,moderate,0.2747,N/A,calibrated_synthetic,,not_available
ServiceNow Inc,NOW,Tech,enterprise,37.0,-122.0,0,None,0,0.0947,calibrated_synthetic,False,0,1.2104,0.8923,19.1788,0.0892,calibrated_synthetic,moderate,0.4992,N/A,calibrated_synthetic,,not_available
Workday Inc,WDAY,Tech,enterprise,37.5294,-122.2655,0,None,0,0.0387,calibrated_synthetic,False,0,0.6561,0.4742,12.9245,0.0476,calibrated_synthetic,low,0.3247,N/A,calibrated_synthetic,,not_available
Palo Alto Networks,PANW,Cybersecurity,enterprise,37.3875,-122.0575,0,None,0,0.0123,calibrated_synthetic,False,0,0.7824,1.6358,16.7464,0.1292,calibrated_synthetic,moderate,0.2728,N/A,calibrated_synthetic,,not_available
Fortinet Inc,FTNT,Cybersecurity,enterprise,37.3875,-122.0575,0,None,0,0.1107,calibrated_synthetic,False,0,0.8134,-0.4272,16.6667,0.0628,calibrated_synthetic,low,0.01,N/A,calibrated_synthetic,,not_available
Zscaler Inc,ZS,Cybersecurity,SME,37.3875,-122.0575,0,None,0,0.278,calibrated_synthetic,False,0,2.8407,2.0134,33.5851,0.2342,calibrated_synthetic,high,0.1507,N/A,calibrated_synthetic,,not_available
DocuSign Inc,DOCU,Tech,enterprise,37.7749,-122.4194,0,None,0,0.1041,calibrated_synthetic,False,0,0.3422,-0.0939,17.9965,0.03,calibrated_synthetic,low,0.4726,N/A,calibrated_synthetic,,not_available
Advanced Micro Devices,AMD,Tech,enterprise,37.3861,-121.9635,0,None,0,0.0681,calibrated_synthetic,False,0,2.2499,0.7012,25.4916,0.0876,calibrated_synthetic,moderate,0.2401,N/A,calibrated_synthetic,,not_available
Qualcomm Inc,QCOM,Tech,enterprise,32.8328,-117.1523,0,None,0,0.0723,calibrated_synthetic,False,0,0.603,-0.2054,21.9531,0.01,calibrated_synthetic,low,0.01,N/A,calibrated_synthetic,,not_available
Texas Instruments,TXN,Tech,enterprise,32.9069,-96.7561,0,None,0,0.0768,calibrated_synthetic,False,0,0.2424,0.1753,27.8822,0.0174,calibrated_synthetic,low,0.3529,N/A,calibrated_synthetic,,not_available
Applied Materials,AMAT,Tech,enterprise,37.3861,-122.058,0,None,0,0.0985,calibrated_synthetic,False,0,0.8045,-0.4354,17.9396,0.0299,calibrated_synthetic,low,0.2309,N/A,calibrated_synthetic,,not_available
Lam Research,LRCX,Tech,enterprise,37.3689,-121.9562,0,None,0,0.0609,calibrated_synthetic,False,0,3.4886,1.2503,46.8022,0.2835,calibrated_synthetic,high,0.3106,N/A,calibrated_synthetic,,not_available
Micron Technology,MU,Tech,enterprise,43.615,-116.2023,0,None,0,0.01,calibrated_synthetic,False,0,0.2137,-0.3262,12.5709,0.1072,calibrated_synthetic,low,0.1486,N/A,calibrated_synthetic,,not_available
Marvell Technology,MRVL,Tech,enterprise,37.2526,-121.9268,0,None,0,0.0155,calibrated_synthetic,False,0,0.0142,0.1386,21.917,0.0699,calibrated_synthetic,low,0.1028,N/A,calibrated_synthetic,,not_available
Analog Devices,ADI,Tech,enterprise,42.3601,-71.0589,0,None,0,0.0321,calibrated_synthetic,False,0,0.409,0.1255,25.008,0.106,calibrated_synthetic,low,0.1254,N/A,calibrated_synthetic,,not_available
Synopsys Inc,SNPS,Tech,enterprise,37.3861,-122.058,0,None,0,0.01,calibrated_synthetic,False,0,0.4427,-0.055,20.6725,0.1155,calibrated_synthetic,low,0.7165,N/A,calibrated_synthetic,,not_available
Cadence Design,CDNS,Tech,enterprise,37.2554,-121.9421,0,None,0,0.0404,calibrated_synthetic,False,0,0.8914,0.5767,20.2989,0.142,calibrated_synthetic,moderate,0.3758,N/A,calibrated_synthetic,,not_available
KLA Corp,KLAC,Tech,enterprise,37.0454,-121.9687,0,None,0,0.0734,calibrated_synthetic,False,0,3.0564,2.5944,37.0603,0.195,calibrated_synthetic,high,0.1919,N/A,calibrated_synthetic,,not_available
AT&T Inc,T,Telecom,enterprise,32.7767,-96.797,0,None,0,0.01,calibrated_synthetic,False,0,-0.0641,0.2096,20.1049,0.0997,calibrated_synthetic,low,0.2511,N/A,calibrated_synthetic,,not_available
Verizon Communications,VZ,Telecom,enterprise,40.7579,-73.9735,0,None,0,0.0342,calibrated_synthetic,False,0,1.73,1.0468,32.785,0.0517,calibrated_synthetic,moderate,0.1912,N/A,calibrated_synthetic,,not_available
T-Mobile US,TMUS,Telecom,enterprise,47.2417,-122.4596,0,None,0,0.0864,calibrated_synthetic,False,0,0.5237,0.1911,35.7888,0.0885,calibrated_synthetic,moderate,0.0956,N/A,calibrated_synthetic,,not_available
Comcast Corp,CMCSA,Media,enterprise,39.9526,-75.1652,0,None,0,0.096,calibrated_synthetic,False,0,2.628,2.3512,51.174,0.3014,calibrated_synthetic,high,0.1678,N/A,calibrated_synthetic,,not_available
Charter Communications,CHTR,Media,enterprise,41.041,-73.962,0,None,0,0.0392,calibrated_synthetic,False,0,0.1805,0.0098,14.2075,0.0708,calibrated_synthetic,low,0.3016,N/A,calibrated_synthetic,,not_available
Lowe's Companies,LOW,Retail,enterprise,35.4101,-80.8535,0,None,0,0.0223,calibrated_synthetic,False,0,0.1666,-0.4349,13.3907,0.0398,calibrated_synthetic,low,0.1525,N/A,calibrated_synthetic,,not_available
TJX Companies,TJX,Retail,enterprise,42.453,-71.2116,0,None,0,0.0562,calibrated_synthetic,False,0,0.7362,-0.3899,22.1487,0.1125,calibrated_synthetic,low,0.501,N/A,calibrated_synthetic,,not_available
Ross Stores,ROST,Retail,enterprise,37.563,-122.2711,0,None,0,0.0156,calibrated_synthetic,False,0,0.4206,0.1022,19.9535,0.0269,calibrated_synthetic,low,0.2907,N/A,calibrated_synthetic,,not_available
Danaher Corp,DHR,Healthcare,enterprise,38.9072,-77.0369,0,None,0,0.0814,calibrated_synthetic,False,0,0.1751,0.3373,16.3296,0.1026,calibrated_synthetic,low,0.3358,N/A,calibrated_synthetic,,not_available
Bristol-Myers Squibb,BMY,Pharma,enterprise,40.4862,-74.4518,0,None,0,0.0194,calibrated_synthetic,False,0,0.0253,-0.482,26.7479,0.1353,calibrated_synthetic,low,0.3739,N/A,calibrated_synthetic,,not_available
Thermo Fisher Scientific,TMO,Healthcare,enterprise,42.4308,-71.0625,0,None,0,0.0112,calibrated_synthetic,False,0,-0.0762,-0.2749,13.8409,0.0773,calibrated_synthetic,low,0.1324,N/A,calibrated_synthetic,,not_available
Intuitive Surgical,ISRG,Healthcare,enterprise,37.3861,-122.058,0,None,0,0.0285,calibrated_synthetic,False,0,2.5608,2.5199,44.8225,0.1134,calibrated_synthetic,high,0.3208,N/A,calibrated_synthetic,,not_available
Regeneron Pharmaceuticals,REGN,Pharma,enterprise,41.0534,-73.7594,0,None,0,0.0761,calibrated_synthetic,False,0,1.1455,-0.2358,11.0948,0.0922,calibrated_synthetic,low,0.4109,N/A,calibrated_synthetic,,not_available
Vertex Pharmaceuticals,VRTX,Pharma,enterprise,42.3601,-71.0589,0,None,0,0.0716,calibrated_synthetic,False,0,0.997,-0.23,15.2522,0.1144,calibrated_synthetic,low,0.5079,N/A,calibrated_synthetic,,not_available
Cigna Group,CI,Healthcare,enterprise,41.0534,-73.5387,0,None,0,0.0384,calibrated_synthetic,False,0,0.7775,-0.377,22.066,0.0688,calibrated_synthetic,low,0.176,N/A,calibrated_synthetic,,not_available
Elevance Health,ELV,Healthcare,enterprise,39.7684,-86.1581,0,None,0,0.0416,calibrated_synthetic,False,0,-0.2341,-0.2476,30.0,0.1298,calibrated_synthetic,low,0.1582,N/A,calibrated_synthetic,,not_available
Humana Inc,HUM,Healthcare,enterprise,38.1938,-85.688,0,None,0,0.01,calibrated_synthetic,False,0,1.3639,0.8344,12.4649,0.1085,calibrated_synthetic,moderate,0.2312,N/A,calibrated_synthetic,,not_available
McKesson Corp,MCK,Healthcare,enterprise,32.7811,-96.6039,0,None,0,0.0245,calibrated_synthetic,False,0,1.41,1.0427,42.3958,0.0635,calibrated_synthetic,moderate,0.3224,N/A,calibrated_synthetic,,not_available
Deere & Company,DE,Industrial,enterprise,41.5122,-90.5767,0,None,0,0.0642,calibrated_synthetic,False,0,0.5674,-0.3737,18.2747,0.0516,calibrated_synthetic,low,0.3964,N/A,calibrated_synthetic,,not_available
United Parcel Service,UPS,Logistics,enterprise,33.749,-84.388,0,None,0,0.0122,calibrated_synthetic,False,0,1.7107,1.6354,16.8981,0.026,calibrated_synthetic,moderate,0.1653,N/A,calibrated_synthetic,,not_available
FedEx Corp,FDX,Logistics,enterprise,35.1495,-89.9711,0,None,0,0.1061,calibrated_synthetic,False,0,0.5697,-0.3042,18.4284,0.043,calibrated_synthetic,low,0.2992,N/A,calibrated_synthetic,,not_available
RTX Corp,RTX,Aerospace,enterprise,38.8951,-77.0364,0,None,0,0.0577,calibrated_synthetic,False,0,0.2153,-0.4346,16.5016,0.078,calibrated_synthetic,low,0.2148,N/A,calibrated_synthetic,,not_available
General Dynamics,GD,Aerospace,enterprise,38.8814,-77.1095,0,None,0,0.1286,calibrated_synthetic,False,0,1.3946,0.7788,36.565,0.1748,calibrated_synthetic,moderate,0.3058,N/A,calibrated_synthetic,,not_available
Northrop Grumman,NOC,Aerospace,enterprise,38.9339,-77.2297,0,None,0,0.0312,calibrated_synthetic,False,0,0.1829,0.0174,22.2422,0.01,calibrated_synthetic,low,0.1814,N/A,calibrated_synthetic,,not_available
S&P Global,SPGI,Finance,enterprise,40.7521,-73.9772,0,None,0,0.0318,calibrated_synthetic,False,0,1.5483,1.563,38.1547,0.1577,calibrated_synthetic,high,0.1547,N/A,calibrated_synthetic,,not_available
Intercontinental Exchange,ICE,Finance,enterprise,33.7631,-84.3857,0,None,0,0.01,calibrated_synthetic,False,0,0.4395,0.2005,14.3291,0.0833,calibrated_synthetic,low,0.249,N/A,calibrated_synthetic,,not_available
CME Group,CME,Finance,enterprise,41.8781,-87.6298,0,None,0,0.0637,calibrated_synthetic,False,0,-0.1444,0.421,21.4895,0.0623,calibrated_synthetic,low,0.3115,N/A,calibrated_synthetic,,not_available
Charles Schwab,SCHW,Finance,enterprise,32.9086,-96.803,0,None,0,0.0356,calibrated_synthetic,False,0,2.6525,2.6589,29.6748,0.2279,calibrated_synthetic,high,0.4107,N/A,calibrated_synthetic,,not_available
Chubb Ltd,CB,Insurance,enterprise,48.2082,16.3738,0,None,0,0.1043,calibrated_synthetic,False,0,-0.3622,0.0047,22.5114,0.0437,calibrated_synthetic,low,0.1944,N/A,calibrated_synthetic,,not_available
Marsh & McLennan,MMC,Insurance,enterprise,40.7551,-73.9874,0,None,0,0.0956,calibrated_synthetic,False,0,0.2687,0.166,12.122,0.0442,calibrated_synthetic,low,0.3835,N/A,calibrated_synthetic,,not_available
Prologis Inc,PLD,Real Estate,enterprise,37.7749,-122.4194,0,None,0,0.0679,calibrated_synthetic,False,0,0.4503,-0.209,20.9101,0.0904,calibrated_synthetic,low,0.3328,N/A,calibrated_synthetic,,not_available
American Tower,AMT,Real Estate,enterprise,42.3601,-71.0589,0,None,0,0.0338,calibrated_synthetic,False,0,0.4717,-0.0906,16.3528,0.1093,calibrated_synthetic,low,0.2105,N/A,calibrated_synthetic,,not_available
Crown Castle,CCI,Real Estate,enterprise,29.7545,-95.3727,0,None,0,0.0601,calibrated_synthetic,False,0,0.1024,-0.0118,17.3275,0.0934,calibrated_synthetic,low,0.0975,N/A,calibrated_synthetic,,not_available
Equinix Inc,EQIX,Real Estate,enterprise,37.3861,-122.058,0,None,0,0.0929,calibrated_synthetic,False,0,1.0049,0.3071,19.2465,0.1218,calibrated_synthetic,low,0.4136,N/A,calibrated_synthetic,,not_available
Public Storage,PSA,Real Estate,enterprise,34.0525,-118.2551,0,None,0,0.0543,calibrated_synthetic,False,0,-0.3597,0.1103,8.0,0.105,calibrated_synthetic,low,0.325,N/A,calibrated_synthetic,,not_available
Schlumberger,SLB,Energy,enterprise,29.7604,-95.3698,0,None,0,0.0766,calibrated_synthetic,False,0,0.985,0.0011,23.0573,0.1337,calibrated_synthetic,low,0.4722,N/A,calibrated_synthetic,,not_available
EOG Resources,EOG,Energy,enterprise,29.7604,-95.3698,0,None,0,0.0277,calibrated_synthetic,False,0,-0.0124,-0.1005,19.7117,0.1422,calibrated_synthetic,low,0.5481,N/A,calibrated_synthetic,,not_available
ConocoPhillips,COP,Energy,enterprise,29.7604,-95.3698,0,None,0,0.0756,calibrated_synthetic,False,0,0.2965,-0.3453,19.9316,0.0718,calibrated_synthetic,low,0.2055,N/A,calibrated_synthetic,,not_available
Occidental Petroleum,OXY,Energy,enterprise,29.7604,-95.3698,0,None,0,0.1027,calibrated_synthetic,False,0,-0.1033,-0.3392,21.1136,0.1052,calibrated_synthetic,low,0.2793,N/A,calibrated_synthetic,,not_available
Marathon Petroleum,MPC,Energy,enterprise,40.0983,-83.1543,0,None,0,0.0259,calibrated_synthetic,False,0,-0.0066,-0.0589,16.9707,0.0501,calibrated_synthetic,low,0.3182,N/A,calibrated_synthetic,,not_available
Valero Energy,VLO,Energy,enterprise,29.4241,-98.4936,0,None,0,0.0447,calibrated_synthetic,False,0,0.3918,0.2624,14.7512,0.0319,calibrated_synthetic,low,0.2407,N/A,calibrated_synthetic,,not_available
Phillips 66,PSX,Energy,enterprise,29.7604,-95.3698,0,None,0,0.0187,calibrated_synthetic,False,0,0.438,-0.1672,15.935,0.0429,calibrated_synthetic,low,0.2772,N/A,calibrated_synthetic,,not_available
Walgreens Boots Alliance,WBA,Healthcare,enterprise,42.1497,-87.8459,0,None,0,0.0491,calibrated_synthetic,False,0,1.2772,0.1049,12.9797,0.0762,calibrated_synthetic,low,0.2776,N/A,calibrated_synthetic,,not_available
Estee Lauder,EL,Consumer,enterprise,40.7585,-73.9679,0,None,0,0.01,calibrated_synthetic,False,0,0.8955,-0.0964,27.1628,0.1126,calibrated_synthetic,low,0.1547,N/A,calibrated_synthetic,,not_available
Colgate-Palmolive,CL,Consumer,enterprise,40.7484,-73.9967,0,None,0,0.0645,calibrated_synthetic,False,0,1.3758,1.9633,57.0411,0.2873,calibrated_synthetic,high,0.2427,N/A,calibrated_synthetic,,not_available
Kimberly-Clark,KMB,Consumer,enterprise,32.7767,-96.797,0,None,0,0.0481,calibrated_synthetic,False,0,1.0783,0.6801,41.329,0.2013,calibrated_synthetic,moderate,0.2089,N/A,calibrated_synthetic,,not_available
Sysco Corp,SYY,Consumer,enterprise,29.7545,-95.3727,0,None,0,0.1166,calibrated_synthetic,False,0,-0.2389,-0.1767,13.8137,0.0557,calibrated_synthetic,low,0.2825,N/A,calibrated_synthetic,,not_available
General Mills,GIS,Consumer,enterprise,44.883,-93.277,0,None,0,0.0338,calibrated_synthetic,False,0,1.9257,1.8386,51.7973,0.2136,calibrated_synthetic,high,0.173,N/A,calibrated_synthetic,,not_available
Kellanova,K,Consumer,enterprise,42.2917,-85.5872,0,None,0,0.0341,calibrated_synthetic,False,0,0.7567,1.0139,36.6029,0.0881,calibrated_synthetic,moderate,0.1242,N/A,calibrated_synthetic,,not_available
Hershey Company,HSY,Consumer,enterprise,40.2876,-76.6506,0,None,0,0.0638,calibrated_synthetic,False,0,0.3169,-0.0562,8.0,0.01,calibrated_synthetic,low,0.1498,N/A,calibrated_synthetic,,not_available
Hormel Foods,HRL,Consumer,enterprise,43.8502,-92.4472,0,None,0,0.0318,calibrated_synthetic,False,0,0.3532,0.0424,8.0,0.1107,calibrated_synthetic,low,0.1922,N/A,calibrated_synthetic,,not_available
McCormick & Co,MKC,Consumer,enterprise,39.4315,-76.6526,0,None,0,0.0565,calibrated_synthetic,False,0,1.1772,0.6303,24.0112,0.1365,calibrated_synthetic,moderate,0.2931,N/A,calibrated_synthetic,,not_available
Mondelez Intl,MDLZ,Consumer,enterprise,42.1497,-87.8459,0,None,0,0.01,calibrated_synthetic,False,0,0.3434,-0.2193,21.7896,0.1074,calibrated_synthetic,low,0.1697,N/A,calibrated_synthetic,,not_available
Constellation Brands,STZ,Consumer,enterprise,42.8804,-77.0218,0,None,0,0.1055,calibrated_synthetic,False,0,0.1221,-0.0193,18.4588,0.0901,calibrated_synthetic,low,0.3618,N/A,calibrated_synthetic,,not_available
Molson Coors,TAP,Consumer,enterprise,39.7596,-104.9863,0,None,0,0.0465,calibrated_synthetic,False,0,0.5821,0.2628,25.3634,0.0558,calibrated_synthetic,low,0.1166,N/A,calibrated_synthetic,,not_available
Anheuser-Busch InBev,BUD,Consumer,enterprise,50.8503,4.3517,0,None,0,0.0431,calibrated_synthetic,False,0,0.3296,-0.3443,18.426,0.01,calibrated_synthetic,low,0.2214,N/A,calibrated_synthetic,,not_available
Diageo plc,DEO,Consumer,enterprise,51.5168,-0.1281,0,None,0,0.0444,calibrated_synthetic,False,0,0.8989,0.2797,16.8172,0.1254,calibrated_synthetic,low,0.1077,N/A,calibrated_synthetic,,not_available
Philip Morris Intl,PM,Consumer,enterprise,41.0535,-73.5387,0,None,0,0.0168,calibrated_synthetic,False,0,1.3763,0.5719,15.2558,0.1335,calibrated_synthetic,moderate,0.2112,N/A,calibrated_synthetic,,not_available
Altria Group,MO,Consumer,enterprise,37.5407,-77.436,0,None,0,0.01,calibrated_synthetic,False,0,-0.1385,0.163,18.9991,0.0906,calibrated_synthetic,low,0.4396,N/A,calibrated_synthetic,,not_available
